{"type": "FeatureCollection", "name": "German data centres — major colocation/hyperscale operators (>=10 MW class). Locations: OpenStreetMap. Capacity (MW) shown only where publicly sourced.", "features": [{"type": "Feature", "properties": {"kind": "datacenter", "name": "Digital Reality DUS2", "operator": "Digital Realty", "city": "Düsseldorf", "mw": null, "mw_source": null, "status": "operational"}, "geometry": {"type": "Point", "coordinates": [6.86672, 51.18776]}}, {"type": "Feature", "properties": {"kind": "datacenter", "name": "Digital Realty DUS1", "operator": "Digital Realty", "city": "Düsseldorf", "mw": null, "mw_source": null, "status": "operational"}, "geometry": {"type": "Point", "coordinates": [6.86786, 51.18809]}}, {"type": "Feature", "properties": {"kind": "datacenter", "name": "Iron Mountain FRA-2", "operator": "Iron Mountain, Inc.", "city": "Frankfurt am Main", "mw": null, "mw_source": null, "status": "operational"}, "geometry": {"type": "Point", "coordinates": [8.63979, 50.19525]}}, {"type": "Feature", "properties": {"kind": "datacenter", "name": "Equinix MU1", "operator": "Equinix", "city": "", "mw": null, "mw_source": null, "status": "operational"}, "geometry": {"type": "Point", "coordinates": [11.55586, 48.14271]}}, {"type": "Feature", "properties": {"kind": "datacenter", "name": "Equinix FR4", "operator": "Equinix", "city": "Frankfurt am Main", "mw": null, "mw_source": null, "status": "operational"}, "geometry": {"type": "Point", "coordinates": [8.58797, 50.09794]}}, {"type": "Feature", "properties": {"kind": "datacenter", "name": "Digital Realty FRA4", "operator": "Digital Realty", "city": "Frankfurt am Main", "mw": null, "mw_source": null, "status": "operational"}, "geometry": {"type": "Point", "coordinates": [8.73504, 50.11897]}}, {"type": "Feature", "properties": {"kind": "datacenter", "name": "Digital Realty FRA6", "operator": "Digital Realty", "city": "Frankfurt am Main", "mw": null, "mw_source": null, "status": "operational"}, "geometry": {"type": "Point", "coordinates": [8.73543, 50.11993]}}, {"type": "Feature", "properties": {"kind": "datacenter", "name": "Digital Realty FRA2", "operator": "Digital Realty", "city": "Frankfurt am Main", "mw": null, "mw_source": null, "status": "operational"}, "geometry": {"type": "Point", "coordinates": [8.73577, 50.12028]}}, {"type": "Feature", "properties": {"kind": "datacenter", "name": "Digital Realty FRA3", "operator": "Digital Realty", "city": "Frankfurt am Main", "mw": null, "mw_source": null, "status": "operational"}, "geometry": {"type": "Point", "coordinates": [8.73616, 50.11929]}}, {"type": "Feature", "properties": {"kind": "datacenter", "name": "Equinix", "operator": "Equinix", "city": "Hamburg", "mw": null, "mw_source": null, "status": "operational"}, "geometry": {"type": "Point", "coordinates": [9.9752, 53.64453]}}, {"type": "Feature", "properties": {"kind": "datacenter", "name": "Equinix FR7", "operator": "Equinix", "city": "", "mw": null, "mw_source": null, "status": "operational"}, "geometry": {"type": "Point", "coordinates": [8.64319, 50.09735]}}, {"type": "Feature", "properties": {"kind": "datacenter", "name": "Equinix FR7", "operator": "Equinix", "city": "", "mw": null, "mw_source": null, "status": "operational"}, "geometry": {"type": "Point", "coordinates": [8.64431, 50.09742]}}, {"type": "Feature", "properties": {"kind": "datacenter", "name": "NTT", "operator": "NTT", "city": "", "mw": null, "mw_source": null, "status": "operational"}, "geometry": {"type": "Point", "coordinates": [8.60111, 50.13013]}}, {"type": "Feature", "properties": {"kind": "datacenter", "name": "NTT", "operator": "NTT", "city": "", "mw": null, "mw_source": null, "status": "operational"}, "geometry": {"type": "Point", "coordinates": [8.60033, 50.12893]}}, {"type": "Feature", "properties": {"kind": "datacenter", "name": "NTT", "operator": "NTT", "city": "", "mw": null, "mw_source": null, "status": "operational"}, "geometry": {"type": "Point", "coordinates": [8.60092, 50.12955]}}, {"type": "Feature", "properties": {"kind": "datacenter", "name": "NTT", "operator": "NTT", "city": "", "mw": null, "mw_source": null, "status": "operational"}, "geometry": {"type": "Point", "coordinates": [8.60126, 50.1288]}}, {"type": "Feature", "properties": {"kind": "datacenter", "name": "Equinix FR8.1", "operator": "Equinix", "city": "Frankfurt am Main", "mw": null, "mw_source": null, "status": "operational"}, "geometry": {"type": "Point", "coordinates": [8.58594, 50.09852]}}, {"type": "Feature", "properties": {"kind": "datacenter", "name": "Equinix FR5", "operator": "Equinix", "city": "Frankfurt am Main", "mw": null, "mw_source": null, "status": "operational"}, "geometry": {"type": "Point", "coordinates": [8.6321, 50.0988]}}, {"type": "Feature", "properties": {"kind": "datacenter", "name": "Equinix DU1", "operator": "Equinix", "city": "Düsseldorf", "mw": null, "mw_source": null, "status": "operational"}, "geometry": {"type": "Point", "coordinates": [6.80697, 51.21984]}}, {"type": "Feature", "properties": {"kind": "datacenter", "name": "Digital Realty FRA1", "operator": "Digital Realty", "city": "Frankfurt am Main", "mw": 77.4, "mw_source": "published", "status": "operational"}, "geometry": {"type": "Point", "coordinates": [8.73567, 50.11964]}}, {"type": "Feature", "properties": {"kind": "datacenter", "name": "Digital Realty FRA9", "operator": "Digital Realty", "city": "Frankfurt am Main", "mw": null, "mw_source": null, "status": "operational"}, "geometry": {"type": "Point", "coordinates": [8.7369, 50.11959]}}, {"type": "Feature", "properties": {"kind": "datacenter", "name": "Vantage Data Center (FRA1)", "operator": "Vantage Data Centers", "city": "Offenbach am Main", "mw": null, "mw_source": null, "status": "operational"}, "geometry": {"type": "Point", "coordinates": [8.74383, 50.10912]}}, {"type": "Feature", "properties": {"kind": "datacenter", "name": "CyrusOne FRA1", "operator": "CyrusOne", "city": "Frankfurt am Main", "mw": null, "mw_source": null, "status": "operational"}, "geometry": {"type": "Point", "coordinates": [8.58291, 50.12811]}}, {"type": "Feature", "properties": {"kind": "datacenter", "name": "Digital Realty FRA8", "operator": "Digital Realty", "city": "Frankfurt am Main", "mw": null, "mw_source": null, "status": "operational"}, "geometry": {"type": "Point", "coordinates": [8.73761, 50.11917]}}, {"type": "Feature", "properties": {"kind": "datacenter", "name": "NTT DATA Business Solutions Global Managed Services", "operator": "NTT", "city": "Bautzen", "mw": null, "mw_source": null, "status": "operational"}, "geometry": {"type": "Point", "coordinates": [14.34643, 51.19396]}}, {"type": "Feature", "properties": {"kind": "datacenter", "name": "Vantage Data Center FRA31", "operator": "Vantage Data Centers", "city": "", "mw": null, "mw_source": null, "status": "operational"}, "geometry": {"type": "Point", "coordinates": [8.45648, 50.01647]}}, {"type": "Feature", "properties": {"kind": "datacenter", "name": "Rechenzentrum Ellhofen", "operator": "Stack IT", "city": "Ellhofen", "mw": null, "mw_source": null, "status": "operational"}, "geometry": {"type": "Point", "coordinates": [9.30801, 49.1459]}}, {"type": "Feature", "properties": {"kind": "datacenter", "name": "Equinix FR7", "operator": "Equinix", "city": "", "mw": null, "mw_source": null, "status": "operational"}, "geometry": {"type": "Point", "coordinates": [8.64378, 50.09737]}}, {"type": "Feature", "properties": {"kind": "datacenter", "name": "Digital Realty FRA7", "operator": "Digital Realty", "city": "Frankfurt am Main", "mw": null, "mw_source": null, "status": "operational"}, "geometry": {"type": "Point", "coordinates": [8.73469, 50.11949]}}, {"type": "Feature", "properties": {"kind": "datacenter", "name": "Digital Realty FRA10", "operator": "Digital Realty", "city": "Frankfurt am Main", "mw": 77.4, "mw_source": "published", "status": "operational"}, "geometry": {"type": "Point", "coordinates": [8.73842, 50.11951]}}, {"type": "Feature", "properties": {"kind": "datacenter", "name": "Digital Realty FRA5", "operator": "Digital Realty", "city": "Frankfurt am Main", "mw": 54.0, "mw_source": "published", "status": "operational"}, "geometry": {"type": "Point", "coordinates": [8.73692, 50.12039]}}, {"type": "Feature", "properties": {"kind": "datacenter", "name": "Equinix FR2", "operator": "Equinix", "city": "Frankfurt am Main", "mw": null, "mw_source": null, "status": "operational"}, "geometry": {"type": "Point", "coordinates": [8.73922, 50.143]}}, {"type": "Feature", "properties": {"kind": "datacenter", "name": "Digital Realty FRA11", "operator": "Digital Realty", "city": "Frankfurt am Main", "mw": 77.4, "mw_source": "published", "status": "operational"}, "geometry": {"type": "Point", "coordinates": [8.73903, 50.11974]}}, {"type": "Feature", "properties": {"kind": "datacenter", "name": "CyrusOne FRA2", "operator": "CyrusOne", "city": "Frankfurt am Main", "mw": null, "mw_source": null, "status": "operational"}, "geometry": {"type": "Point", "coordinates": [8.58266, 50.12766]}}, {"type": "Feature", "properties": {"kind": "datacenter", "name": "Digital Realty FRA30", "operator": "Digital Realty", "city": "Frankfurt am Main", "mw": null, "mw_source": null, "status": "operational"}, "geometry": {"type": "Point", "coordinates": [8.58595, 50.12711]}}, {"type": "Feature", "properties": {"kind": "datacenter", "name": "NTT", "operator": "NTT", "city": "", "mw": null, "mw_source": null, "status": "operational"}, "geometry": {"type": "Point", "coordinates": [8.60335, 50.12945]}}, {"type": "Feature", "properties": {"kind": "datacenter", "name": "Digital Realty FRA12", "operator": "Digital Realty", "city": "Frankfurt am Main", "mw": 77.4, "mw_source": "published", "status": "operational"}, "geometry": {"type": "Point", "coordinates": [8.73789, 50.12001]}}, {"type": "Feature", "properties": {"kind": "datacenter", "name": "Digital Realty FRA13", "operator": "Digital Realty", "city": "Frankfurt am Main", "mw": 77.4, "mw_source": "published", "status": "operational"}, "geometry": {"type": "Point", "coordinates": [8.73966, 50.12]}}, {"type": "Feature", "properties": {"kind": "datacenter", "name": "Digital Realty FRA14", "operator": "Digital Realty", "city": "Frankfurt am Main", "mw": 77.4, "mw_source": "published", "status": "operational"}, "geometry": {"type": "Point", "coordinates": [8.73691, 50.11887]}}, {"type": "Feature", "properties": {"kind": "datacenter", "name": "Equinix FR2.6", "operator": "Equinix", "city": "Frankfurt am Main", "mw": null, "mw_source": null, "status": "operational"}, "geometry": {"type": "Point", "coordinates": [8.73886, 50.14197]}}, {"type": "Feature", "properties": {"kind": "datacenter", "name": "Equinix FR6", "operator": "Equinix", "city": "Frankfurt am Main", "mw": null, "mw_source": null, "status": "operational"}, "geometry": {"type": "Point", "coordinates": [8.58821, 50.09687]}}, {"type": "Feature", "properties": {"kind": "datacenter", "name": "Equinix Germany GmbH", "operator": "Equinix", "city": "Frankfurt am Main", "mw": null, "mw_source": null, "status": "operational"}, "geometry": {"type": "Point", "coordinates": [8.64386, 50.0975]}}, {"type": "Feature", "properties": {"kind": "datacenter", "name": "Digital Realty FRA15", "operator": "Digital Realty", "city": "Frankfurt am Main", "mw": 77.4, "mw_source": "published", "status": "operational"}, "geometry": {"type": "Point", "coordinates": [8.73293, 50.11859]}}, {"type": "Feature", "properties": {"kind": "datacenter", "name": "Equinix FR9", "operator": "Equinix", "city": "Frankfurt am Main", "mw": null, "mw_source": null, "status": "operational"}, "geometry": {"type": "Point", "coordinates": [8.73941, 50.14157]}}, {"type": "Feature", "properties": {"kind": "datacenter", "name": "Global Switch Frankfurt", "operator": "Global Switch", "city": "", "mw": null, "mw_source": null, "status": "operational"}, "geometry": {"type": "Point", "coordinates": [8.59803, 50.13049]}}, {"type": "Feature", "properties": {"kind": "datacenter", "name": "maincubes FRANKFURT-01", "operator": "Maincubes", "city": "Offenbach am Main", "mw": null, "mw_source": null, "status": "operational"}, "geometry": {"type": "Point", "coordinates": [8.74311, 50.10963]}}, {"type": "Feature", "properties": {"kind": "datacenter", "name": "Digital Realty FRA16", "operator": "Digital Realty", "city": "Frankfurt am Main", "mw": 77.4, "mw_source": "published", "status": "operational"}, "geometry": {"type": "Point", "coordinates": [8.7385, 50.12025]}}, {"type": "Feature", "properties": {"kind": "datacenter", "name": "CyrusOne FRA3", "operator": "CyrusOne", "city": "Frankfurt am Main", "mw": null, "mw_source": null, "status": "operational"}, "geometry": {"type": "Point", "coordinates": [8.57707, 50.12884]}}, {"type": "Feature", "properties": {"kind": "datacenter", "name": "Digital Realty FRA31", "operator": "Digital Realty", "city": "Frankfurt am Main", "mw": null, "mw_source": null, "status": "operational"}, "geometry": {"type": "Point", "coordinates": [8.58513, 50.12727]}}, {"type": "Feature", "properties": {"kind": "datacenter", "name": "Digital Realty FRA32", "operator": "Digital Realty", "city": "Frankfurt am Main", "mw": null, "mw_source": null, "status": "operational"}, "geometry": {"type": "Point", "coordinates": [8.58431, 50.12744]}}, {"type": "Feature", "properties": {"kind": "datacenter", "name": "Iron Mountain FRA-1", "operator": "Iron Mountain", "city": "Frankfurt am Main", "mw": 27.0, "mw_source": "published", "status": "operational"}, "geometry": {"type": "Point", "coordinates": [8.73988, 50.13368]}}, {"type": "Feature", "properties": {"kind": "datacenter", "name": "Digital Realty FRA29", "operator": "Digital Realty", "city": "Frankfurt am Main", "mw": null, "mw_source": null, "status": "operational"}, "geometry": {"type": "Point", "coordinates": [8.58482, 50.12627]}}, {"type": "Feature", "properties": {"kind": "datacenter", "name": "Colt FRA74", "operator": "Colt", "city": "Frankfurt am Main", "mw": null, "mw_source": null, "status": "operational"}, "geometry": {"type": "Point", "coordinates": [8.58777, 50.12551]}}, {"type": "Feature", "properties": {"kind": "datacenter", "name": "Equinix FR11", "operator": "Equinix", "city": "Frankfurt am Main", "mw": null, "mw_source": null, "status": "operational"}, "geometry": {"type": "Point", "coordinates": [8.7404, 50.13844]}}, {"type": "Feature", "properties": {"kind": "datacenter", "name": "BER11", "operator": "Vantage Data Centers", "city": "Ludwigsfelde", "mw": null, "mw_source": null, "status": "operational"}, "geometry": {"type": "Point", "coordinates": [13.29472, 52.32203]}}, {"type": "Feature", "properties": {"kind": "datacenter", "name": "Digital Realty FRA33", "operator": "Digital Realty", "city": "", "mw": null, "mw_source": null, "status": "operational"}, "geometry": {"type": "Point", "coordinates": [8.48789, 50.06253]}}, {"type": "Feature", "properties": {"kind": "datacenter", "name": "Digital Realty FRA17", "operator": "Digital Realty", "city": "", "mw": 77.4, "mw_source": "published", "status": "operational"}, "geometry": {"type": "Point", "coordinates": [8.75405, 50.12512]}}, {"type": "Feature", "properties": {"kind": "datacenter", "name": "Vantage Data Center FRA21", "operator": "Vantage Data Centers", "city": "", "mw": null, "mw_source": null, "status": "operational"}, "geometry": {"type": "Point", "coordinates": [8.46187, 50.0132]}}, {"type": "Feature", "properties": {"kind": "datacenter", "name": "Vantage Data Center FRA22", "operator": "Vantage Data Centers", "city": "", "mw": null, "mw_source": null, "status": "operational"}, "geometry": {"type": "Point", "coordinates": [8.46207, 50.01237]}}, {"type": "Feature", "properties": {"kind": "datacenter", "name": "CyrusOne FRA 4", "operator": "CyrusOne", "city": "Frankfurt am Main", "mw": null, "mw_source": null, "status": "operational"}, "geometry": {"type": "Point", "coordinates": [8.57855, 50.1326]}}, {"type": "Feature", "properties": {"kind": "datacenter", "name": "Rechenzentrum BER01", "operator": "maincubes Holding & Service GmbH", "city": "", "mw": null, "mw_source": null, "status": "operational"}, "geometry": {"type": "Point", "coordinates": [13.30348, 52.4787]}}, {"type": "Feature", "properties": {"kind": "datacenter", "name": "Vantage Berlin II (BER2)", "operator": "Vantage Data Centers", "city": "", "mw": null, "mw_source": null, "status": "operational"}, "geometry": {"type": "Point", "coordinates": [13.57359, 52.26376]}}, {"type": "Feature", "properties": {"kind": "datacenter", "name": "Vantage Berlin II (BER2)", "operator": "Vantage Data Centers", "city": "", "mw": null, "mw_source": null, "status": "operational"}, "geometry": {"type": "Point", "coordinates": [13.57412, 52.26298]}}, {"type": "Feature", "properties": {"kind": "datacenter", "name": "Equinix FR13", "operator": "Equinix", "city": "Frankfurt am Main", "mw": null, "mw_source": null, "status": "operational"}, "geometry": {"type": "Point", "coordinates": [8.73963, 50.13911]}}, {"type": "Feature", "properties": {"kind": "datacenter", "name": "Digital Realty UW03", "operator": "Digital Realty", "city": "", "mw": null, "mw_source": null, "status": "operational"}, "geometry": {"type": "Point", "coordinates": [8.75213, 50.12451]}}, {"type": "Feature", "properties": {"kind": "datacenter", "name": "Digital Realty", "operator": "Digital Realty", "city": "", "mw": null, "mw_source": null, "status": "operational"}, "geometry": {"type": "Point", "coordinates": [8.4869, 50.06447]}}, {"type": "Feature", "properties": {"kind": "datacenter", "name": "Digital Realty", "operator": "Digital Realty", "city": "", "mw": null, "mw_source": null, "status": "operational"}, "geometry": {"type": "Point", "coordinates": [8.48753, 50.06501]}}, {"type": "Feature", "properties": {"kind": "datacenter", "name": "Equinix FR8.2", "operator": "Equinix", "city": "Frankfurt am Main", "mw": null, "mw_source": null, "status": "operational"}, "geometry": {"type": "Point", "coordinates": [8.58607, 50.09813]}}, {"type": "Feature", "properties": {"kind": "datacenter", "name": "Maincubes FRA02", "operator": "Maincubes", "city": "", "mw": null, "mw_source": null, "status": "operational"}, "geometry": {"type": "Point", "coordinates": [8.53157, 50.16553]}}, {"type": "Feature", "properties": {"kind": "datacenter", "name": "NTT Global Datacenters Frankfurt 4", "operator": "NTT", "city": "", "mw": null, "mw_source": null, "status": "operational"}, "geometry": {"type": "Point", "coordinates": [8.48532, 50.06216]}}, {"type": "Feature", "properties": {"kind": "datacenter", "name": "Virtus Wustermark Megacampus", "operator": "Virtus / NTT", "city": "Wustermark", "mw": 300.0, "mw_source": "published", "status": "planned/under construction"}, "geometry": {"type": "Point", "coordinates": [12.956, 52.547]}}, {"type": "Feature", "properties": {"kind": "datacenter", "name": "Google Data Centre Hanau", "operator": "Google", "city": "Hanau", "mw": null, "mw_source": null, "status": "under construction"}, "geometry": {"type": "Point", "coordinates": [8.921, 50.133]}}]}